{"html_attributions": [], "results": [{"business_status": "OPERATIONAL", "geometry": {"location": {"lat": 42.7109737, "lng": -73.8154259}, "viewport": {"northeast": {"lat": 42.71210942989271, "lng": -73.81430455}, "southwest": {"lat": 42.70940977010727, "lng": -73.81836034999998}}}, "icon": "https://maps.gstatic.com/mapfiles/place_api/icons/v1/png_71/shopping-71.png", "icon_background_color": "#4B96F3", "icon_mask_base_uri": "https://maps.gstatic.com/mapfiles/place_api/icons/v2/shopping_pinlet", "name": "Hilton Music Center Inc. - Music School Albany", "opening_hours": {"open_now": true}, "photos": [{"height": 1000, "html_attributions": ["<a href=\"https://maps.google.com/maps/contrib/100133587781672654426\">A Google User</a>"], "photo_reference": "Aap_uEAn8ky587r7qPE3b0ZwQ3P6hd80TuwUYLPt6TuSfTLUEsdp4kQNN488AcoqeJgrXkmaabEfS4wIGHpCJKXTRVbJT-uP4VwFxepT7GoVJ87uwQRDyf3_oLl9uSmo7yWLN_TiFDYCtyujyYrVq6T-3fuU8J0A_KQM9R3GQexem_14SNhs", "width": 1510}], "place_id": "ChIJa8sVmpsM3okRdjE5XMQmvIk", "plus_code": {"compound_code": "P56M+9R Albany, New York", "global_code": "87J8P56M+9R"}, "rating": 4.7, "reference": "ChIJa8sVmpsM3okRdjE5XMQmvIk", "scope": "GOOGLE", "types": ["electronics_store", "home_goods_store", "school", "point_of_interest", "store", "establishment"], "user_ratings_total": 40, "vicinity": "440 Colonie Center, Albany"}, {"business_status": "OPERATIONAL", "geometry": {"location": {"lat": 42.6911642, "lng": -73.8685017}, "viewport": {"northeast": {"lat": 42.69234782989272, "lng": -73.86699632010728}, "southwest": {"lat": 42.68964817010728, "lng": -73.86969597989271}}}, "icon": "https://maps.gstatic.com/mapfiles/place_api/icons/v1/png_71/school-71.png", "icon_background_color": "#7B9EB0", "icon_mask_base_uri": "https://maps.gstatic.com/mapfiles/place_api/icons/v2/school_pinlet", "name": "Guilderland Music Academy", "opening_hours": {"open_now": false}, "photos": [{"height": 461, "html_attributions": ["<a href=\"https://maps.google.com/maps/contrib/105532922032131237653\">A Google User</a>"], "photo_reference": "Aap_uEBaAeOMDDQtLRqQutvcRuoApxW96AmrDMdDSmhYIZUimWrWadwLOz8dzywqLDjbPcTmCA2b4qSdzGWpNMGqE0l72xqEM7jFWLumhOG8CNmN83oSk7heq21EiwD7fB_Qgpwkh_JogfP0giJy7ZyZ8J4WK8l1LsT2krSVOZA1zZlwHLeu", "width": 820}], "place_id": "ChIJuSbyYOh03okRVqorACURVGU", "plus_code": {"compound_code": "M4RJ+FH Albany, New York", "global_code": "87J8M4RJ+FH"}, "rating": 5, "reference": "ChIJuSbyYOh03okRVqorACURVGU", "scope": "GOOGLE", "types": ["electronics_store", "home_goods_store", "school", "point_of_interest", "store", "establishment"], "user_ratings_total": 101, "vicinity": "1823 Western Ave, Albany"}, {"business_status": "OPERATIONAL", "geometry": {"location": {"lat": 42.675304, "lng": -73.82967599999999}, "viewport": {"northeast": {"lat": 42.67634382989272, "lng": -73.82786982010727}, "southwest": {"lat": 42.67364417010728, "lng": -73.83056947989272}}}, "icon": "https://maps.gstatic.com/mapfiles/place_api/icons/v1/png_71/school-71.png", "icon_background_color": "#7B9EB0", "icon_mask_base_uri": "https://maps.gstatic.com/mapfiles/place_api/icons/v2/school_pinlet", "name": "ChristinesMusicStudio.com Violin and Piano Lessons", "opening_hours": {"open_now": true}, "photos": [{"height": 810, "html_attributions": ["<a href=\"https://maps.google.com/maps/contrib/102607063615941300511\">A Google User</a>"], "photo_reference": "Aap_uED2u6Yx_L0KfS7ZOBy8w86cHtqV1eatvb4UlZtPODgdFaJrKMHOjsDiwv0NEuR0yVaFI3ukA3olTbrSEjXlsUGTilwbMSFsVKprfzfYRnRI9zCh-o00DLbPAJAqkSV6eqA_N-hn9iyXdLwpvc-I2JUVeYgp80N4rpgDIU9k_iZ5vywK", "width": 1440}], "place_id": "ChIJOW_A-ycL3okR84c0AMTesJ0", "plus_code": {"compound_code": "M5GC+44 Albany, New York", "global_code": "87J8M5GC+44"}, "rating": 5, "reference": "ChIJOW_A-ycL3okR84c0AMTesJ0", "scope": "GOOGLE", "types": ["electronics_store", "home_goods_store", "school", "point_of_interest", "store", "establishment"], "user_ratings_total": 24, "vicinity": "83 Orchard Ave, Albany"}, {"business_status": "OPERATIONAL", "geometry": {"location": {"lat": 42.6973995, "lng": -73.8082944}, "viewport": {"northeast": {"lat": 42.69878817989272, "lng": -73.80684862010727}, "southwest": {"lat": 42.69608852010727, "lng": -73.80954827989271}}}, "icon": "https://maps.gstatic.com/mapfiles/place_api/icons/v1/png_71/school-71.png", "icon_background_color": "#7B9EB0", "icon_mask_base_uri": "https://maps.gstatic.com/mapfiles/place_api/icons/v2/school_pinlet", "name": "The Music Studio", "opening_hours": {"open_now": false}, "photos": [{"height": 980, "html_attributions": ["<a href=\"https://maps.google.com/maps/contrib/106506752168534777700\">A Google User</a>"], "photo_reference": "Aap_uEAO6HkimMeoS1Xm-BPsNu7QA8yKjSQ3qOc5idwv8PXYbxu-C8RThL6ZONqq9S_J_V0Kun67s_LpMVTezUe1qa_bNozjX3cvx_mEOGXMOS8_l39Lzn7v38_vrvw7u0oIgROkrw31eVoSWhPeUjgHYDUwCLmRKdy1BX72CH6QtGliyif-", "width": 2450}], "place_id": "ChIJ2RLDN24L3okR2rNvdDSTiTw", "plus_code": {"compound_code": "M5WR+XM Albany, New York", "global_code": "87J8M5WR+XM"}, "rating": 4.7, "reference": "ChIJ2RLDN24L3okR2rNvdDSTiTw", "scope": "GOOGLE", "types": ["school", "point_of_interest", "establishment"], "user_ratings_total": 12, "vicinity": "1237 Central Ave # 2, Albany"}, {"business_status": "OPERATIONAL", "geometry": {"location": {"lat": 42.6708909, "lng": -73.791944}, "viewport": {"northeast": {"lat": 42.67233257989272, "lng": -73.79075507010727}, "southwest": {"lat": 42.66963292010728, "lng": -73.79345472989272}}}, "icon": "https://maps.gstatic.com/mapfiles/place_api/icons/v1/png_71/school-71.png", "icon_background_color": "#7B9EB0", "icon_mask_base_uri": "https://maps.gstatic.com/mapfiles/place_api/icons/v2/school_pinlet", "name": "Miss Peggy's Music Room", "opening_hours": {"open_now": false}, "photos": [{"height": 1503, "html_attributions": ["<a href=\"https://maps.google.com/maps/contrib/104053374054447480192\">Miss Peggy&#39;s Music Room</a>"], "photo_reference": "Aap_uEAG23idFZfuIp5n_UfYHhYxhC6cETy_eKFWJcPki3Lgz66ZbnzuoWC286U7DH13DU8DpfPnFqA0dbRL_DwjpndLk-MaaEfewAsEbKYN9LEg_IV-zmH9FkjBLxz34wc-O_Snnbq-ZM4WXnLZWP-5fvYJ6c4zAwPb-9x5eTfmM0riGMc1", "width": 1527}], "place_id": "ChIJ4ReS4aoL3okRBX0QdRb4-q0", "plus_code": {"compound_code": "M6C5+96 Albany, New York", "global_code": "87J8M6C5+96"}, "rating": 4.3, "reference": "ChIJ4ReS4aoL3okRBX0QdRb4-q0", "scope": "GOOGLE", "types": ["point_of_interest", "establishment"], "user_ratings_total": 6, "vicinity": "Manning Blvd, Albany"}, {"business_status": "OPERATIONAL", "geometry": {"location": {"lat": 42.6911418, "lng": -73.86808669999999}, "viewport": {"northeast": {"lat": 42.69233662989272, "lng": -73.86684207010728}, "southwest": {"lat": 42.68963697010728, "lng": -73.86954172989272}}}, "icon": "https://maps.gstatic.com/mapfiles/place_api/icons/v1/png_71/school-71.png", "icon_background_color": "#7B9EB0", "icon_mask_base_uri": "https://maps.gstatic.com/mapfiles/place_api/icons/v2/school_pinlet", "name": "The Cady School of Music", "opening_hours": {"open_now": false}, "place_id": "ChIJbU0_fbAL3okRWscQBnhTPgA", "plus_code": {"compound_code": "M4RJ+FQ Albany, New York", "global_code": "87J8M4RJ+FQ"}, "rating": 5, "reference": "ChIJbU0_fbAL3okRWscQBnhTPgA", "scope": "GOOGLE", "types": ["school", "point_of_interest", "establishment"], "user_ratings_total": 1, "vicinity": "1823 Western Ave, Albany"}, {"business_status": "OPERATIONAL", "geometry": {"location": {"lat": 42.717851, "lng": -73.8036623}, "viewport": {"northeast": {"lat": 42.71917772989272, "lng": -73.80246412010727}, "southwest": {"lat": 42.71647807010727, "lng": -73.80516377989272}}}, "icon": "https://maps.gstatic.com/mapfiles/place_api/icons/v1/png_71/shopping-71.png", "icon_background_color": "#4B96F3", "icon_mask_base_uri": "https://maps.gstatic.com/mapfiles/place_api/icons/v2/shopping_pinlet", "name": "Guitar Center", "opening_hours": {"open_now": true}, "photos": [{"height": 2988, "html_attributions": ["<a href=\"https://maps.google.com/maps/contrib/114510974453447582164\">Tony Bussey</a>"], "photo_reference": "Aap_uEB_3ZHQvBzi9anhl33303ybtm4AgggxqHlDNlzbObMiIplYcxxDELpxytDLvCAigN25r1BFJonvMLfsGCLVhPSdxfyF6jMRUNrckd8sj7S6LCi2aCAx2TbCBol-Nk0F2pWt3vpwRY-V2o5MvFdXOVvWqX3T-32fpfvJLUyI2zFKag5n", "width": 5312}], "place_id": "ChIJu7i1dYUM3okR72JcnOA7438", "plus_code": {"compound_code": "P59W+4G Colonie, New York", "global_code": "87J8P59W+4G"}, "rating": 4.1, "reference": "ChIJu7i1dYUM3okR72JcnOA7438", "scope": "GOOGLE", "types": ["electronics_store", "home_goods_store", "point_of_interest", "store", "establishment"], "user_ratings_total": 584, "vicinity": "145 Wolf Rd, Colonie"}, {"business_status": "OPERATIONAL", "geometry": {"location": {"lat": 42.6948602, "lng": -73.80765099999999}, "viewport": {"northeast": {"lat": 42.69616582989272, "lng": -73.80625197010727}, "southwest": {"lat": 42.69346617010728, "lng": -73.80895162989272}}}, "icon": "https://maps.gstatic.com/mapfiles/place_api/icons/v1/png_71/shopping-71.png", "icon_background_color": "#4B96F3", "icon_mask_base_uri": "https://maps.gstatic.com/mapfiles/place_api/icons/v2/shopping_pinlet", "name": "Capital Mixers Recording Studio", "opening_hours": {"open_now": true}, "photos": [{"height": 2269, "html_attributions": ["<a href=\"https://maps.google.com/maps/contrib/104028606437138054105\">A Google User</a>"], "photo_reference": "Aap_uEBC6diZRHkKtdCEn7NKV-6sZdlssv5fGbBJ9iglDWMb2xf2-A5tzUD1lkuS-icl4ebwGUfV22Gal_yGxRgZ6X0wZgEgIMCfC7gVYuaSd19yMuj7nHduqOIkY6Qdz1kdJ19DXHskXR1VAjuMNBshyjc1fD7peAPEXAP-zLAq8SErbvz2", "width": 4032}], "place_id": "ChIJ09MBYSEK3okR2NP_VUCAQHg", "plus_code": {"compound_code": "M5VR+XW Albany, New York", "global_code": "87J8M5VR+XW"}, "rating": 5, "reference": "ChIJ09MBYSEK3okR2NP_VUCAQHg", "scope": "GOOGLE", "types": ["electronics_store", "home_goods_store", "point_of_interest", "store", "establishment"], "user_ratings_total": 39, "vicinity": "3 Highland Ave, Albany"}, {"business_status": "OPERATIONAL", "geometry": {"location": {"lat": 42.6690834, "lng": -73.8038191}, "viewport": {"northeast": {"lat": 42.67047497989272, "lng": -73.80253307010727}, "southwest": {"lat": 42.66777532010728, "lng": -73.80523272989272}}}, "icon": "https://maps.gstatic.com/mapfiles/place_api/icons/v1/png_71/school-71.png", "icon_background_color": "#7B9EB0", "icon_mask_base_uri": "https://maps.gstatic.com/mapfiles/place_api/icons/v2/school_pinlet", "name": "Jammin With Julie", "opening_hours": {"open_now": false}, "place_id": "ChIJxXe8AP0K3okROw62M2XZ_TM", "plus_code": {"compound_code": "M59W+JG Albany, New York", "global_code": "87J8M59W+JG"}, "rating": 5, "reference": "ChIJxXe8AP0K3okROw62M2XZ_TM", "scope": "GOOGLE", "types": ["electronics_store", "home_goods_store", "school", "point_of_interest", "store", "establishment"], "user_ratings_total": 1, "vicinity": "Albany"}, {"business_status": "CLOSED_TEMPORARILY", "geometry": {"location": {"lat": 42.7028243, "lng": -73.8852969}, "viewport": {"northeast": {"lat": 42.70416937989272, "lng": -73.88393047010727}, "southwest": {"lat": 42.70146972010728, "lng": -73.88663012989271}}}, "icon": "https://maps.gstatic.com/mapfiles/place_api/icons/v1/png_71/school-71.png", "icon_background_color": "#7B9EB0", "icon_mask_base_uri": "https://maps.gstatic.com/mapfiles/place_api/icons/v2/school_pinlet", "name": "Music Box Arts Music Together Classes", "permanently_closed": true, "photos": [{"height": 931, "html_attributions": ["<a href=\"https://maps.google.com/maps/contrib/104426991388526352828\">Music Box Arts Music Together Classes .</a>"], "photo_reference": "Aap_uEDrdH6qhafchkEYJ05RAFpbIHjEKYEn0XWYUhKvWkMP3X9IPq7Zalb1C7ZKIltJyTvYEtkFoLmzmAcvl7rE4PYC009DGPO8Wv_56A9n1TR_l1V8CQ6waoxQhf2VbNI2ZtXLLuMugVQI1S2N99F3fOwDOpcBDiA3qRik0widEEeypFX9", "width": 2048}], "place_id": "ChIJw_EaO4t03okRrwesHeMAR-Y", "plus_code": {"compound_code": "P437+4W Schenectady, New York", "global_code": "87J8P437+4W"}, "rating": 0, "reference": "ChIJw_EaO4t03okRrwesHeMAR-Y", "scope": "GOOGLE", "types": ["point_of_interest", "establishment"], "user_ratings_total": 0, "vicinity": "943 Eastern Pkwy, Schenectady"}, {"business_status": "OPERATIONAL", "geometry": {"location": {"lat": 42.7001637, "lng": -73.786503}, "viewport": {"northeast": {"lat": 42.70184857989273, "lng": -73.78548262010727}, "southwest": {"lat": 42.69914892010728, "lng": -73.78818227989272}}}, "icon": "https://maps.gstatic.com/mapfiles/place_api/icons/v1/png_71/generic_business-71.png", "icon_background_color": "#13B5C7", "icon_mask_base_uri": "https://maps.gstatic.com/mapfiles/place_api/icons/v2/generic_pinlet", "name": "Catricala Band Instrument Repair", "opening_hours": {"open_now": false}, "photos": [{"height": 3024, "html_attributions": ["<a href=\"https://maps.google.com/maps/contrib/103245001991774238774\">CHERYL Catricala</a>"], "photo_reference": "Aap_uEA9wBxmFVzp3oVE2Va4zT8ie6Fu6eGkNLjvRByIAIDslmI_mmcZK2O8psXBjAu00dQysOtHrHEi9NU5xbqFo3jwHz-o_CitX_kc4LFYbKay6bvf0_4sgSoZNHE8pn-hLj2xE4ZvJCt8G1zlTi9hA0ltEqP_h1rx6-Fl6cTczP5Qk-gr", "width": 4032}], "place_id": "ChIJq6qeUYQL3okReitIR1I800I", "plus_code": {"compound_code": "P627+3C Albany, New York", "global_code": "87J8P627+3C"}, "rating": 5, "reference": "ChIJq6qeUYQL3okReitIR1I800I", "scope": "GOOGLE", "types": ["electronics_store", "home_goods_store", "point_of_interest", "store", "establishment"], "user_ratings_total": 4, "vicinity": "186 Osborne Rd, Albany"}, {"business_status": "OPERATIONAL", "geometry": {"location": {"lat": 42.7093628, "lng": -73.8177019}, "viewport": {"northeast": {"lat": 42.71136167989273, "lng": -73.81612092010728}, "southwest": {"lat": 42.70866202010728, "lng": -73.81882057989273}}}, "icon": "https://maps.gstatic.com/mapfiles/place_api/icons/v1/png_71/shopping-71.png", "icon_background_color": "#4B96F3", "icon_mask_base_uri": "https://maps.gstatic.com/mapfiles/place_api/icons/v2/shopping_pinlet", "name": "Hilton Piano Workshop", "opening_hours": {"open_now": true}, "photos": [{"height": 4032, "html_attributions": ["<a href=\"https://maps.google.com/maps/contrib/103100646849164449052\">Sanam Assili</a>"], "photo_reference": "Aap_uEDCdddvPMWFj6OzCv91kCDNVxrPJEhwd54IXXrrQKEM5oQdZevumn0h6HiYRFgvp3BSfMpUpW1Yrk9tuYz8f1Qfscr7RFG4U-stWfETxoINNmcWynksI7-VsjjgfWt67FhwDwFfIw1tvn5-UWZJpz_asoJILPyVNZEPgjz_XttgOaw7", "width": 3024}], "place_id": "ChIJCZN9h14L3okRtZVsCQy7HRo", "plus_code": {"compound_code": "P55J+PW Albany, New York", "global_code": "87J8P55J+PW"}, "rating": 4, "reference": "ChIJCZN9h14L3okRtZVsCQy7HRo", "scope": "GOOGLE", "types": ["moving_company", "electronics_store", "home_goods_store", "school", "point_of_interest", "store", "establishment"], "user_ratings_total": 4, "vicinity": "103 Colonie Center, Albany"}, {"business_status": "OPERATIONAL", "geometry": {"location": {"lat": 42.6894475, "lng": -73.8495172}, "viewport": {"northeast": {"lat": 42.69089412989273, "lng": -73.84825077010728}, "southwest": {"lat": 42.68819447010728, "lng": -73.85095042989273}}}, "icon": "https://maps.gstatic.com/mapfiles/place_api/icons/v1/png_71/shopping-71.png", "icon_background_color": "#4B96F3", "icon_mask_base_uri": "https://maps.gstatic.com/mapfiles/place_api/icons/v2/shopping_pinlet", "name": "FYE", "opening_hours": {"open_now": true}, "photos": [{"height": 3648, "html_attributions": ["<a href=\"https://maps.google.com/maps/contrib/100409673392434000928\">Karthik Arunachalam</a>"], "photo_reference": "Aap_uECyME2seTfVvPgNoDWQhuQisveaniUltHPVPetssTY0Jg_mdZFZVVyVNgQYB2lOA7O7Jigc3Y5bNfP6vGnkDFjJCBHgnx7PfLIsz1MwggIh_ui_YsgfzYJdNEaR0sVcQGfVKngvbfbgF7oSGvQ9SBNf6M1wh5O4EPeU-T-W2-Cm6w6w", "width": 5472}], "place_id": "ChIJRzcwJM503okRkNo09ovTiJk", "plus_code": {"compound_code": "M5Q2+Q5 Albany, New York", "global_code": "87J8M5Q2+Q5"}, "price_level": 2, "rating": 4.2, "reference": "ChIJRzcwJM503okRkNo09ovTiJk", "scope": "GOOGLE", "types": ["book_store", "electronics_store", "home_goods_store", "food", "point_of_interest", "clothing_store", "store", "establishment"], "user_ratings_total": 313, "vicinity": "120 Washington Ave, Albany"}, {"business_status": "OPERATIONAL", "geometry": {"location": {"lat": 42.6633187, "lng": -73.78847770000002}, "viewport": {"northeast": {"lat": 42.66477362989272, "lng": -73.78692732010728}, "southwest": {"lat": 42.66207397010728, "lng": -73.78962697989273}}}, "icon": "https://maps.gstatic.com/mapfiles/place_api/icons/v1/png_71/generic_business-71.png", "icon_background_color": "#13B5C7", "icon_mask_base_uri": "https://maps.gstatic.com/mapfiles/place_api/icons/v2/generic_pinlet", "name": "Massry Center for the Arts", "photos": [{"height": 3006, "html_attributions": ["<a href=\"https://maps.google.com/maps/contrib/116462982726398583194\">Brian Wolfgang</a>"], "photo_reference": "Aap_uEBAtiZrkVGVXq9rN_dBRAaiKxBv5RrupMODcCROkx1PCpnzgcitAmh6rMQ08wVYP02ISO3fDa-jOOiteKTrJ83LxBt3amADANcH2vcVeFTnDTv-eBAoV9ootqhywQ4rbxmg1V9eFO8Xt9_2DtXzOqtnE7FA9gjAXJvUvnafhe23EWHj", "width": 5344}], "place_id": "ChIJq-0HZ1EK3okRVUJ-ApxXJiQ", "plus_code": {"compound_code": "M676+FR Albany, New York", "global_code": "87J8M676+FR"}, "rating": 4.7, "reference": "ChIJq-0HZ1EK3okRVUJ-ApxXJiQ", "scope": "GOOGLE", "types": ["point_of_interest", "establishment"], "user_ratings_total": 105, "vicinity": "1002 Madison Ave, Albany"}, {"business_status": "OPERATIONAL", "geometry": {"location": {"lat": 42.7010647, "lng": -73.8143219}, "viewport": {"northeast": {"lat": 42.70246952989272, "lng": -73.81288312010727}, "southwest": {"lat": 42.69976987010728, "lng": -73.81558277989272}}}, "icon": "https://maps.gstatic.com/mapfiles/place_api/icons/v1/png_71/school-71.png", "icon_background_color": "#7B9EB0", "icon_mask_base_uri": "https://maps.gstatic.com/mapfiles/place_api/icons/v2/school_pinlet", "name": "Banjo Guitar & Harmonica Std", "place_id": "ChIJ_UKanmgL3okRlLRPDXswqhk", "plus_code": {"compound_code": "P52P+C7 Albany, New York", "global_code": "87J8P52P+C7"}, "rating": 0, "reference": "ChIJ_UKanmgL3okRlLRPDXswqhk", "scope": "GOOGLE", "types": ["school", "point_of_interest", "establishment"], "user_ratings_total": 0, "vicinity": "1316 Central Ave, Albany"}, {"business_status": "OPERATIONAL", "geometry": {"location": {"lat": 42.6769439, "lng": -73.7986114}, "viewport": {"northeast": {"lat": 42.67833932989272, "lng": -73.79721292010728}, "southwest": {"lat": 42.67563967010728, "lng": -73.79991257989272}}}, "icon": "https://maps.gstatic.com/mapfiles/place_api/icons/v1/png_71/shopping-71.png", "icon_background_color": "#4B96F3", "icon_mask_base_uri": "https://maps.gstatic.com/mapfiles/place_api/icons/v2/shopping_pinlet", "name": "Darn King Entertainment", "place_id": "ChIJSwP3EoYL3okRIIT3L9oTjLI", "plus_code": {"compound_code": "M6G2+QG Albany, New York", "global_code": "87J8M6G2+QG"}, "rating": 0, "reference": "ChIJSwP3EoYL3okRIIT3L9oTjLI", "scope": "GOOGLE", "types": ["electronics_store", "home_goods_store", "point_of_interest", "store", "establishment"], "user_ratings_total": 0, "vicinity": "1066 Washington Ave, Albany"}], "status": "OK"}